     3.02           OBSERVATION DATA    M: Mixed            RINEX VERSION / TYPE
CONVBIN Beta-0.1                        20180808 033033 UTC PGM / RUN BY / DATE 
Note: Generated By FMI Android GNSS RAW Decoder-Beta-0.1    COMMENT             
Format: u-blox                                              COMMENT             
                                                            MARKER NAME         
                                                            MARKER NUMBER       
                                                            MARKER TYPE         
                                                            OBSERVER / AGENCY   
                                                            REC # / TYPE / VERS 
                                                            ANT # / TYPE        
        0.0000        0.0000        0.0000                  APPROX POSITION XYZ 
        0.0000        0.0000        0.0000                  ANTENNA: DELTA H/E/N
G    4 C1C L1C D1C S1C                                      SYS / # / OBS TYPES 
E    4 C1X L1X D1X S1X                                      SYS / # / OBS TYPES 
C    4 C1I L1I D1I S1I                                      SYS / # / OBS TYPES 
  2018     8     8     3    30   39.0000000     GPS         TIME OF FIRST OBS   
  2018     8     8     3    30   50.0000000     GPS         TIME OF LAST OBS    
G                                                           SYS / PHASE SHIFT   
E                                                           SYS / PHASE SHIFT   
C                                                           SYS / PHASE SHIFT   
  0                                                         GLONASS SLOT / FRQ #
 C1C    0.000 C1P    0.000 C2C    0.000 C2P    0.000        GLONASS COD/PHS/BIS 
                                                            END OF HEADER       
> 2018  8  8  3 30 39.0000000  0 30                     
G 1  21816831.601 1 114648221.062 1     -3105.060          44.000  
G 3  21486286.872 1 112911213.900 1       815.050          45.000  
G24  25043464.095 1 131604283.913 1       903.809          39.000  
G11  22644395.910 1 118997094.803 1     -3261.213          42.000  
G17  21333001.664 1 112105694.077 1      1010.029          48.000  
G18  23813105.275 1 125138704.189 1     -3869.739          39.000  
G22  22299624.996 1 117185330.507 1     -1001.445          45.000  
G28  20362376.631 1 107005005.819 1      -798.665          46.000  
G30  24265619.470 1 127516666.264 1     -3579.040          39.000  
E 1  24243951.454 1 127402840.792 1      -110.123          44.000  
C18  36987375.613 1 192602934.663 1     -1754.161          44.000  
C19  21779716.399 1 113412668.104 1      -396.021          47.000  
C20  24621625.931 1 128211248.254 1      -721.027          44.000  
C 1  37689628.163 1 196259744.855 1      -324.569          42.000  
C 3  37280014.665 1 194126785.097 1      -301.498          42.000  
C 7  37288629.872 1 194171639.229 1     -1665.622          42.000  
C 8  35906967.107 1 186976970.896 1      -391.003          45.000  
C10  36424071.503 1 189669665.809 1     -1225.378          44.000  
C29  23873901.464 1 124317628.284 1     -2321.173          46.000  
E14  19990684.051 1 105051749.922 1     -6242.546          41.000  
E21  24821611.526 1 130438455.235 1     -2844.565          43.000  
E26  21935886.120 1 115273878.255 1       257.687          45.000  
C 4  38945812.468 1 202801023.320 1      -296.686          40.000  
C12  23916321.879 1 124538560.890 1      1690.656          41.000  
C 5  39829139.733 2 207400750.82621      -249.791          33.000  
C13  36823060.593 1 191747306.752 1       -44.857          45.000  
G 6  22847105.038 1 120062368.052 1      2658.240          43.000  
G19  22476412.157 1 118114363.088 1      2199.850          43.000  
C24  24436921.920 1 127249451.011 1       735.494          43.000  
C 2  38282723.110 1 199348145.565 1      -230.596          39.000  
> 2018  8  8  3 30 40.0000000  0 30                     
G 1  21817422.535 1 114651326.280 1     -3105.356          44.000  
G 3  21486131.862 1 112910399.229 1       814.254          45.000  
G24  25043292.018 1 131603380.313 1       903.378          39.000  
G11  22645016.632 1 119000356.113 1     -3261.492          42.000  
G17  21332809.520 1 112104684.120 1      1009.773          48.000  
G18  23813841.761 1 125142574.100 1     -3870.105          39.000  
G22  22299815.761 1 117186332.151 1     -1002.094          45.000  
G28  20362528.815 1 107005804.804 1      -799.214          46.000  
G30  24266300.395 1 127520245.114 1     -3579.425          39.000  
E 1  24243972.517 1 127402951.033 1      -110.511          44.000  
C18  36987712.559 1 192604688.773 1     -1754.220          44.000  
C19  21779792.412 1 113413064.308 1      -396.320          47.000  
C20  24621764.381 1 128211969.647 1      -721.878          44.000  
C 1  37689690.321 1 196260069.389 1      -324.621          42.000  
C 3  37280072.600 1 194127086.613 1      -301.468          42.000  
C 7  37288949.839 1 194173304.911 1     -1665.795          42.000  
C 8  35907042.282 1 186977361.875 1      -391.101          45.000  
C10  36424306.750 1 189670891.371 1     -1225.729          44.000  
C29  23874347.247 1 124319949.389 1     -2321.112          46.000  
E14  19991871.748 1 105057992.818 1     -6243.072          40.000  
E21  24822153.059 1 130441300.037 1     -2844.983          43.000  
E26  21935837.469 1 115273620.721 1       257.367          45.000  
C 4  38945869.495 1 202801319.936 1      -296.655          40.000  
C12  23915997.008 1 124536870.040 1      1690.692          41.000  
C 5  39829187.791 4 207401000.83922      -251.135          33.000  
C13  36823069.161 1 191747351.595 1       -44.938          45.000  
G 6  22846598.860 1 120059709.888 1      2657.860          43.000  
G19  22475993.526 1 118112163.218 1      2199.969          43.000  
C24  24436780.888 1 127248715.861 1       734.807          44.000  
C 2  38282767.433 1 199348376.321 1      -230.917          39.000  
> 2018  8  8  3 30 41.0000000  0 30                     
G 1  21818013.819 1 114654432.204 1     -3107.478          44.000  
G 3  21485976.974 1 112909585.630 1       812.063          45.000  
G24  25043120.361 1 131602477.729 1       901.083          40.000  
G11  22645637.266 1 119003618.026 1     -3263.334          42.000  
G17  21332617.340 1 112103674.779 1      1007.954          48.000  
G18  23814577.986 1 125146444.512 1     -3871.979          39.000  
G22  22300006.335 1 117187334.838 1     -1004.299          45.000  
G28  20362680.963 1 107006604.791 1      -801.620          46.000  
G30  24266981.582 1 127523824.367 1     -3580.617          39.000  
E 1  24243993.439 1 127403062.219 1      -112.762          44.000  
C18  36988049.453 1 192606443.478 1     -1755.974          44.000  
C19  21779868.669 1 113413461.160 1      -398.229          47.000  
C20  24621903.093 1 128212692.005 1      -723.874          44.000  
C 1  37689752.845 1 196260394.405 1      -326.340          42.000  
C 3  37280130.691 1 194127388.571 1      -303.060          42.000  
C 7  37289269.737 1 194174971.133 1     -1667.427          42.000  
C 8  35907117.423 1 186977753.338 1      -392.981          45.000  
C10  36424542.275 1 189672117.533 1     -1227.576          44.000  
C29  23874793.118 1 124322271.049 1     -2323.041          46.000  
E14  19993059.828 1 105064236.336 1     -6244.998          40.000  
E21  24822694.417 1 130444145.576 1     -2846.940          43.000  
E26  21935788.242 1 115273363.835 1       255.426          45.000  
C 4  38945926.505 1 202801617.003 1      -298.560          40.000  
C12  23915672.382 1 124535179.754 1      1688.708          41.000  
C 5  39829236.145 4 207401251.24022      -251.491          33.000  
C13  36823077.886 1 191747396.935 1       -46.594          45.000  
G 6  22846092.838 1 120057052.465 1      2655.963          43.000  
G19  22475574.756 1 118109963.981 1      2197.884          43.000  
C24  24436639.872 1 127247981.685 1       732.552          43.000  
C 2  38282811.862 1 199348607.497 1      -232.644          39.000  
> 2018  8  8  3 30 42.0000000  0 30                     
G 1  21818605.486 1 114657540.246 1     -3108.362          44.000  
G 3  21485822.417 1 112908774.527 1       810.752          45.000  
G24  25042948.895 1 131601577.544 1       900.204          40.000  
G11  22646258.389 1 119006881.953 1     -3264.021          42.000  
G17  21332425.702 1 112102667.457 1      1007.301          48.000  
G18  23815314.821 1 125150316.840 1     -3872.217          39.000  
G22  22300197.415 1 117188339.991 1     -1005.592          45.000  
G28  20362833.513 1 107007407.161 1      -802.842          46.000  
G30  24267662.838 1 127527405.502 1     -3581.133          39.000  
E 1  24244014.938 1 127403175.748 1      -113.738          44.000  
C18  36988386.696 1 192608200.165 1     -1756.768          44.000  
C19  21779945.119 1 113413860.054 1      -398.955          47.000  
C20  24622042.276 1 128213416.754 1      -724.908          44.000  
C 1  37689815.543 1 196260721.221 1      -326.735          42.000  
C 3  37280188.818 1 194127692.404 1      -304.093          42.000  
C 7  37289590.071 1 194176639.346 1     -1668.453          42.000  
C 8  35907193.122 1 186978146.669 1      -393.372          45.000  
C10  36424778.115 1 189673345.681 1     -1228.152          44.000  
C29  23875239.634 1 124324594.639 1     -2323.663          46.000  
E14  19994248.607 1 105070481.866 1     -6245.500          41.000  
E21  24823236.368 1 130446993.266 1     -2847.823          43.000  
E26  21935739.852 1 115273109.017 1       254.665          45.000  
C 4  38945983.794 1 202801915.900 1      -299.036          40.000  
C12  23915348.052 1 124533491.360 1      1688.495          41.000  
C 5  39829284.360 2 207401503.50431      -251.912          33.000  
C13  36823087.118 1 191747444.168 1       -47.161          45.000  
G 6  22845587.724 1 120054397.174 1      2655.117          43.000  
G19  22475156.631 1 118107766.745 1      2197.297          43.000  
C24  24436499.294 1 127247249.870 1       731.495          44.000  
C 2  38282856.412 1 199348840.524 1      -233.000          39.000  
> 2018  8  8  3 30 43.0000000  0 30                     
G 1  21819196.978 1 114660648.879 1     -3109.448          44.000  
G 3  21485668.419 1 112907964.396 1       809.230          45.000  
G24  25042777.795 1 131600678.250 1       898.611          40.000  
G11  22646879.809 1 119010146.382 1     -3265.223          42.000  
G17  21332234.151 1 112101660.654 1      1006.141          48.000  
G18  23816051.727 1 125154189.587 1     -3873.560          39.000  
G22  22300388.966 1 117189346.064 1     -1006.903          45.000  
G28  20362986.272 1 107008210.404 1      -804.260          46.000  
G30  24268344.339 1 127530986.956 1     -3581.731          39.000  
E 1  24244036.803 1 127403290.112 1      -115.281          44.000  
C18  36988724.078 1 192609957.302 1     -1757.609          44.000  
C19  21780021.987 1 113414259.493 1      -400.100          47.000  
C20  24622182.070 1 128214142.398 1      -726.482          44.000  
C 1  37689878.521 1 196261048.414 1      -327.723          42.000  
C 3  37280247.521 1 194127996.531 1      -304.681          42.000  
C 7  37289910.788 1 194178307.980 1     -1669.260          42.000  
C 8  35907268.804 1 186978540.355 1      -394.305          45.000  
C10  36425014.077 1 189674574.339 1     -1229.407          44.000  
C29  23875686.080 1 124326918.662 1     -2324.609          46.000  
E14  19995437.263 1 105076727.927 1     -6246.652          41.000  
E21  24823778.233 1 130449841.595 1     -2849.140          43.000  
E26  21935691.498 1 115272854.735 1       253.539          45.000  
C 4  38946041.066 1 202802215.126 1      -299.933          40.000  
C12  23915023.967 1 124531803.441 1      1687.299          41.000  
C 5  39829332.645 4 207401755.10432      -252.912          33.000  
C13  36823096.436 1 191747491.773 1       -48.302          45.000  
G 6  22845082.820 1 120051742.494 1      2654.124          43.000  
G19  22474738.576 1 118105569.984 1      2195.913          43.000  
C24  24436358.767 1 127246518.923 1       729.971          44.000  
C 2  38282901.015 1 199349073.892 1      -233.699          39.000  
> 2018  8  8  3 30 44.0000000  0 30                     
G 1  21819788.977 1 114663759.421 1     -3110.863          44.000  
G 3  21485514.840 1 112907156.538 1       807.595          45.000  
G24  25042607.115 1 131599781.161 1       896.958          40.000  
G11  22647501.490 1 119013412.618 1     -3266.356          42.000  
G17  21332042.932 1 112100655.673 1      1004.888          48.000  
G18  23816789.312 1 125158064.043 1     -3874.701          39.000  
G22  22300580.866 1 117190354.402 1     -1008.574          45.000  
G28  20363139.398 1 107009015.848 1      -805.663          46.000  
G30  24269026.276 1 127534570.061 1     -3583.134          39.000  
E 1  24244059.192 1 127403406.611 1      -116.660          44.000  
C18  36989062.246 1 192611716.246 1     -1759.021          44.000  
C19  21780099.117 1 113414660.772 1      -401.333          47.000  
C20  24622322.195 1 128214870.210 1      -727.976          44.000  
C 1  37689941.708 1 196261377.238 1      -329.037          42.000  
C 3  37280306.031 1 194128302.316 1      -305.743          42.000  
C 7  37290231.366 1 194179978.377 1     -1670.198          42.000  
C 8  35907344.590 1 186978935.705 1      -395.300          45.000  
C10  36425250.527 1 189675804.762 1     -1230.453          44.000  
C29  23876132.736 1 124329244.429 1     -2325.952          46.000  
E14  19996626.094 1 105082975.808 1     -6247.964          41.000  
E21  24824320.690 1 130452691.863 1     -2850.431          43.000  
E26  21935643.859 1 115272602.309 1       252.400          45.000  
C 4  38946098.616 1 202802516.003 1      -300.873          40.000  
C12  23914700.370 1 124530117.258 1      1686.090          41.000  
C 5  39829381.296 4 207402009.38022      -254.421          33.000  
C13  36823105.807 1 191747541.072 1       -49.303          45.000  
G 6  22844578.212 1 120049089.762 1      2652.675          43.000  
G19  22474320.923 1 118103375.032 1      2194.796          43.000  
C24  24436218.764 1 127245790.146 1       728.413          44.000  
C 2  38282946.211 1 199349308.897 1      -235.104          39.000  
> 2018  8  8  3 30 45.0000000  0 30                     
G 1  21820380.819 1 114666869.953 1     -3110.595          44.000  
G 3  21485361.103 1 112906349.056 1       807.083          45.000  
G24  25042436.521 1 131598884.376 1       896.322          39.000  
G11  22648122.875 1 119016678.754 1     -3266.167          42.000  
G17  21331851.416 1 112099650.594 1      1005.035          48.000  
G18  23817526.828 1 125161938.302 1     -3874.426          39.000  
G22  22300772.836 1 117191363.075 1     -1008.940          45.000  
G28  20363292.925 1 107009821.565 1      -806.058          46.000  
G30  24269708.300 1 127538152.906 1     -3582.886          39.000  
E 1  24244081.232 1 127403523.349 1      -116.942          44.000  
C18  36989399.890 1 192613475.039 1     -1758.929          44.000  
C19  21780176.299 1 113415061.982 1      -401.229          47.000  
C20  24622461.971 1 128215598.311 1      -728.373          44.000  
C 1  37690004.826 1 196261705.806 1      -328.482          42.000  
C 3  37280364.838 1 194128607.837 1      -305.374          42.000  
C 7  37290552.188 1 194181648.636 1     -1670.201          42.000  
C 8  35907420.324 1 186979330.824 1      -395.105          45.000  
C10  36425486.873 1 189677035.067 1     -1230.370          44.000  
C29  23876579.270 1 124331570.015 1     -2325.720          46.000  
E14  19997815.240 1 105089223.586 1     -6247.858          41.000  
E21  24824862.868 1 130455542.151 1     -2850.468          43.000  
E26  21935595.923 1 115272349.826 1       252.363          45.000  
C 4  38946156.150 1 202802816.611 1      -300.433          40.000  
C12  23914376.581 1 124528430.884 1      1686.365          41.000  
C 5  39829430.279 4 207402263.35232      -253.916          33.000  
C13  36823114.951 1 191747590.145 1       -49.111          45.000  
G 6  22844073.813 1 120046437.034 1      2652.610          43.000  
G19  22473903.269 1 118101179.946 1      2195.231          43.000  
C24  24436078.691 1 127245061.641 1       727.979          44.000  
C 2  38282991.110 1 199349543.642 1      -234.623          39.000  
> 2018  8  8  3 30 46.0000000  0 30                     
G 1  21820972.852 1 114669981.047 1     -3111.473          44.000  
G 3  21485207.227 1 112905542.499 1       806.056          45.000  
G24  25042265.963 2 131597988.447 1       895.268          39.000  
G11  22648744.522 1 119019945.349 1     -3266.914          43.000  
G17  21331660.283 1 112098645.989 1      1004.279          48.000  
G18  23818264.310 1 125165812.930 1     -3874.664          39.000  
G22  22300964.823 1 117192372.637 1     -1009.946          45.000  
G28  20363446.173 1 107010628.116 1      -806.968          46.000  
G30  24270390.168 1 127541736.041 1     -3583.485          39.000  
E 1  24244103.533 1 127403640.870 1      -117.917          44.000  
C18  36989737.657 1 192615234.279 1     -1759.416          44.000  
C19  21780253.534 1 113415463.696 1      -402.079          47.000  
C20  24622601.817 1 128216327.248 1      -729.482          44.000  
C 1  37690067.926 1 196262034.684 1      -329.192          42.000  
C 3  37280423.489 1 194128913.660 1      -305.856          42.000  
C 7  37290873.011 1 194183319.301 1     -1670.756          42.000  
C 8  35907496.372 1 186979726.287 1      -395.807          45.000  
C10  36425723.271 1 189678265.847 1     -1231.140          44.000  
C29  23877025.873 1 124333895.993 1     -2326.117          46.000  
E14  19999004.175 1 105095471.851 1     -6248.545          41.000  
E21  24825405.448 1 130458393.047 1     -2851.284          43.000  
E26  21935547.865 1 115272097.840 1       251.821          45.000  
C 4  38946214.154 1 202803117.541 1      -301.184          40.000  
C12  23914052.722 1 124526744.917 1      1685.791          41.000  
C 5  39829479.122 4 207402517.64222      -255.042          33.000  
C13  36823124.758 1 191747639.578 1       -49.664          45.000  
G 6  22843568.874 1 120043784.886 1      2651.567          43.000  
G19  22473485.738 1 118098985.353 1      2194.318          43.000  
C24  24435939.124 1 127244333.945 1       727.161          44.000  
C 2  38283036.411 1 199349778.685 1      -235.242          39.000  
> 2018  8  8  3 30 47.0000000  0 30                     
G 1  21821565.060 1 114673092.779 1     -3111.648          44.000  
G 3  21485053.875 1 112904736.956 1       805.443          45.000  
G24  25042095.597 1 131597093.425 1       895.012          39.000  
G11  22649366.325 1 119023212.486 1     -3266.884          43.000  
G17  21331469.134 1 112097641.932 1      1004.242          48.000  
G18  23819001.616 1 125169687.995 1     -3875.171          39.000  
G22  22301157.037 1 117193383.189 1     -1010.533          45.000  
G28  20363599.752 1 107011435.600 1      -807.673          46.000  
G30  24271072.000 1 127545319.548 1     -3583.518          39.000  
E 1  24244125.956 1 127403759.270 1      -118.495          44.000  
C18  36990075.807 1 192616994.024 1     -1759.504          44.000  
C19  21780330.646 1 113415865.988 1      -402.206          47.000  
C20  24622742.065 1 128217057.101 1      -729.790          44.000  
C 1  37690131.131 1 196262363.920 1      -329.224          42.000  
C 3  37280482.261 1 194129219.884 1      -306.258          42.000  
C 7  37291193.728 1 194184990.488 1     -1671.161          42.000  
C 8  35907572.298 1 186980122.129 1      -395.667          45.000  
C10  36425959.722 1 189679497.179 1     -1231.355          44.000  
C29  23877472.721 1 124336222.455 1     -2326.300          46.000  
E14  20000193.076 1 105101720.649 1     -6248.525          41.000  
E21  24825948.324 1 130461244.605 1     -2851.365          43.000  
E26  21935499.772 1 115271846.446 1       251.587          45.000  
C 4  38946272.054 1 202803418.827 1      -301.178          40.000  
C12  23913728.794 1 124525059.447 1      1685.638          41.000  
C 5  39829528.052 4 207402772.25922      -253.925          33.000  
C13  36823134.390 1 191747689.425 1       -49.679          45.000  
G 6  22843064.179 1 120041133.384 1      2651.525          43.000  
G19  22473068.189 1 118096791.286 1      2194.069          43.000  
C24  24435799.557 1 127243607.164 1       726.656          44.000  
C 2  38283081.729 1 199350014.081 1      -234.949          39.000  
> 2018  8  8  3 30 48.0000000  0 30                     
G 1  21822157.041 1 114676204.471 1     -3111.865          44.000  
G 3  21484900.574 1 112903931.734 1       804.957          45.000  
G24  25041925.352 2 131596198.666 1       894.507          39.000  
G11  22649988.181 1 119026479.478 1     -3267.056          43.000  
G17  21331278.124 1 112096637.739 1      1004.108          48.000  
G18  23819739.045 1 125173562.801 1     -3874.823          39.000  
G22  22301349.391 1 117194394.032 1     -1011.169          45.000  
G28  20363753.610 1 107012243.300 1      -807.855          46.000  
G30  24271753.763 1 127548902.743 1     -3583.143          39.000  
E 1  24244148.363 1 127403877.849 1      -119.004          44.000  
C18  36990413.451 1 192618753.611 1     -1759.776          44.000  
C19  21780407.846 1 113416268.180 1      -402.359          47.000  
C20  24622882.242 1 128217787.213 1      -730.447          44.000  
C 1  37690194.143 1 196262692.848 1      -328.963          42.000  
C 3  37280540.981 1 194129525.788 1      -305.972          42.000  
C 7  37291514.690 1 194186661.453 1     -1670.962          42.000  
C 8  35907648.241 1 186980517.699 1      -395.538          45.000  
C10  36426195.858 1 189680728.361 1     -1231.440          44.000  
C29  23877919.342 1 124338548.703 1     -2326.337          46.000  
E14  20001382.186 1 105107969.324 1     -6248.641          41.000  
E21  24826490.694 1 130464096.160 1     -2851.689          43.000  
E26  21935451.819 1 115271594.948 1       251.486          45.000  
C 4  38946329.971 1 202803719.828 1      -300.983          40.000  
C12  23913404.918 1 124523373.761 1      1685.864          41.000  
C 5  39829576.808 4 207403026.62732      -254.401          33.000  
C13  36823143.674 1 191747739.023 1       -49.683          45.000  
G 6  22842560.094 1 120038481.856 1      2651.473          43.000  
G19  22472650.728 1 118094597.051 1      2194.019          43.000  
C24  24435660.043 1 127242880.598 1       726.337          44.000  
C 2  38283127.012 1 199350249.218 1      -235.114          39.000  
> 2018  8  8  3 30 49.0000000  0 30                     
G 1  21822749.319 1 114679316.505 1     -3111.926          44.000  
G 3  21484747.484 1 112903127.241 1       804.498          45.000  
G24  25041754.881 1 131595304.550 1       893.906          39.000  
G11  22650609.950 1 119029746.726 1     -3267.404          43.000  
G17  21331087.288 1 112095633.809 1      1004.089          48.000  
G18  23820476.421 1 125177437.760 1     -3874.957          39.000  
G22  22301541.797 1 117195405.569 1     -1011.679          45.000  
G28  20363907.225 1 107013051.645 1      -808.583          46.000  
G30  24272435.473 1 127552486.022 1     -3582.852          39.000  
E 1  24244171.414 1 127403997.016 1      -119.272          44.000  
C18  36990751.532 1 192620513.424 1     -1759.587          44.000  
C19  21780484.994 1 113416670.672 1      -402.404          47.000  
C20  24623022.298 1 128218517.953 1      -731.058          44.000  
C 1  37690257.208 1 196263021.892 1      -329.055          42.000  
C 3  37280599.771 1 194129831.783 1      -305.620          42.000  
C 7  37291835.704 1 194188332.641 1     -1671.019          42.000  
C 8  35907724.132 1 186980913.395 1      -395.471          45.000  
C10  36426432.483 1 189681959.754 1     -1231.220          44.000  
C29  23878365.980 1 124340875.140 1     -2326.184          46.000  
E14  20002571.262 1 105114218.261 1     -6248.760          41.000  
E21  24827033.135 1 130466948.104 1     -2851.950          43.000  
E26  21935403.464 1 115271343.755 1       251.286          45.000  
C 4  38946387.854 1 202804020.910 1      -300.873          40.000  
C12  23913081.286 1 124521688.299 1      1685.309          41.000  
C 5  39829625.477 4 207403281.09022      -254.357          33.000  
C13  36823153.132 1 191747788.766 1       -49.594          45.000  
G 6  22842055.713 1 120035830.727 1      2651.070          43.000  
G19  22472233.161 1 118092403.068 1      2193.999          43.000  
C24  24435520.703 1 127242154.669 1       725.787          44.000  
C 2  38283172.191 1 199350484.427 1      -234.675          39.000  
> 2018  8  8  3 30 50.0000000  0 30                     
G 1  21823341.475 1 114682428.511 1     -3111.776          44.000  
G 3  21484594.480 1 112902323.086 1       804.358          45.000  
G24  25041584.724 1 131594410.675 1       894.140          39.000  
G11  22651231.474 1 119033013.832 1     -3266.853          43.000  
G17  21330895.999 1 112094629.758 1      1004.371          48.000  
G18  23821213.902 1 125181312.516 1     -3874.481          39.000  
G22  22301734.360 1 117196417.399 1     -1011.591          45.000  
G28  20364061.171 1 107013860.230 1      -808.411          46.000  
G30  24273116.834 1 127556069.011 1     -3582.369          39.000  
E 1  24244194.222 1 127404116.382 1      -119.282          44.000  
C18  36991089.368 1 192622273.087 1     -1759.313          44.000  
C19  21780562.246 1 113417073.078 1      -402.143          47.000  
C20  24623162.632 1 128219248.943 1      -730.821          44.000  
C 1  37690320.413 1 196263350.628 1      -328.566          42.000  
C 3  37280658.648 1 194130137.509 1      -305.386          42.000  
C 7  37292156.457 1 194190003.650 1     -1670.599          42.000  
C 8  35907800.006 1 186981308.806 1      -395.013          45.000  
C10  36426669.038 1 189683191.027 1     -1230.981          44.000  
C29  23878812.793 1 124343201.386 1     -2325.854          46.000  
E14  20003760.162 1 105120467.087 1     -6248.556          41.000  
E21  24827575.854 1 130469800.037 1     -2851.678          43.000  
E26  21935355.738 1 115271092.468 1       251.575          45.000  
C 4  38946445.666 1 202804321.716 1      -300.482          40.000  
C12  23912757.410 1 124520002.604 1      1685.901          41.000  
C 5  39829674.320 4 207403535.24322      -253.493          33.000  
C13  36823162.485 1 191747838.270 1       -49.199          45.000  
G 6  22841551.000 1 120033179.545 1      2651.546          43.000  
G19  22471815.333 1 118090208.943 1      2194.291          44.000  
C24  24435381.363 1 127241428.966 1       726.063          44.000  
C 2  38283217.195 1 199350719.375 1      -234.651          39.000  
